{
    "status":0,
    "message":"ok",
    "total":400,
    "results":[
        {
            "name":"中国建设银行(北京朝阳支行)",
            "location":{
                "lat":39.92846,
                "lng":116.453927
            },
            "address":"朝外大街10号",
            "street_id":"8cba4bb0028d9f84ad04574c",
            "telephone":"010-51995215;010-51995110;010-51995206",
            "detail":1,
            "uid":"8cba4bb0028d9f84ad04574c"
        },
        {
            "name":"中国建设银行(北京前门支行)",
            "location":{
                "lat":39.905797,
                "lng":116.417942
            },
            "address":"北京市东城区西打磨厂街1号",
            "street_id":"6deee3086a4f396a28fc4899",
            "telephone":"010-67084007",
            "detail":1,
            "uid":"6deee3086a4f396a28fc4899"
        },
        {
            "name":"招商银行(北京东三环支行)",
            "location":{
                "lat":39.959415,
                "lng":116.466047
            },
            "address":"东三环北路1号",
            "street_id":"f757e6eee5867817260bd04c",
            "detail":1,
            "uid":"f757e6eee5867817260bd04c"
        },
        {
            "name":"招商银行(北京清华园支行)",
            "location":{
                "lat":39.999661,
                "lng":116.337763
            },
            "address":"清华科技园清华科技大厦B座一层",
            "street_id":"0617c4b57b35b63d4d2fdfd2",
            "detail":1,
            "uid":"0617c4b57b35b63d4d2fdfd2"
        },
        {
            "name":"招商银行(立水桥支行)",
            "location":{
                "lat":40.046242,
                "lng":116.421249
            },
            "address":"北京市朝阳区北苑路13号院1号楼1~9号",
            "street_id":"6ee01020660a7d9153e5c59a",
            "telephone":"(010)52086681",
            "detail":1,
            "uid":"6ee01020660a7d9153e5c59a"
        },
        {
            "name":"中国建设银行(北大南街支行)",
            "location":{
                "lat":39.992629,
                "lng":116.320865
            },
            "address":"北京市海淀区海淀路50号北大资源东楼",
            "street_id":"101bc61bc95a1ea3c42ba146",
            "telephone":"(010)62540486,(010)82610239,(010)62624685",
            "detail":1,
            "uid":"101bc61bc95a1ea3c42ba146"
        },
        {
            "name":"中国工商银行(天通苑西区支行)",
            "location":{
                "lat":40.072972,
                "lng":116.420479
            },
            "address":"东小口镇中东路398号",
            "street_id":"5ffb1816cf771a226f476058",
            "telephone":"010-84821191",
            "detail":1,
            "uid":"5ffb1816cf771a226f476058"
        },
        {
            "name":"北京银行(北太平庄支行)",
            "location":{
                "lat":39.973171,
                "lng":116.36904
            },
            "address":"北京市海淀区北三环中路戊40号",
            "street_id":"f2b109f8795b3dbdd72ce2e5",
            "detail":1,
            "uid":"f2b109f8795b3dbdd72ce2e5"
        },
        {
            "name":"中国建设银行(金融街支行)",
            "location":{
                "lat":39.91587,
                "lng":116.367097
            },
            "address":"北京市西城区兴盛街6号",
            "street_id":"15e1e85e6c373adf5910938c",
            "telephone":"(010)88093001",
            "detail":1,
            "uid":"15e1e85e6c373adf5910938c"
        },
        {
            "name":"招商银行(大运村支行)",
            "location":{
                "lat":39.982458,
                "lng":116.35101
            },
            "address":"北京市海淀区知春路城铁站向东300米路北,量子芯座大厦一层",
            "street_id":"c5ddcc08daffefc6d8131841",
            "telephone":"(010)82357645,(010)82357508",
            "detail":1,
            "uid":"c5ddcc08daffefc6d8131841"
        }
    ]
}